 { "type" : "FeatureCollection",
    "features" : [
         { "type" : "Feature",
        "id" : 1,
            "geometry" : {
                "type" : "Point",
                "coordinates" : [103.7931457,1.440143942]},
        "properties" : { "name" : "855 Woodlands Street 83","price" : 372000,"sqft" : 904}
        },
         { "type" : "Feature",
        "id" : 2,
            "geometry" : {
                "type" : "Point",
                "coordinates" : [103.8370467,1.376203485]},
        "properties" : { "name" : "178 Ang Mo Kio Avenue 4","price" : 380000,"sqft" : 882}
        },
         { "type" : "Feature",
        "id" : 3,
            "geometry" : {
                "type" : "Point",
                "coordinates" : [103.7647823,1.317373127]},
        "properties" : { "name" : "319 Clementi Avenue 4","price" : 408000,"sqft" : 721}
        },
         { "type" : "Feature",
        "id" : 4,
            "geometry" : {
                "type" : "Point",
                "coordinates" : [103.8789769,1.379486519]},
        "properties" : { "name" : "979A Buangkok Crescent","price" : 425000,"sqft" : 968}
        },
         { "type" : "Feature",
        "id" : 5,
            "geometry" : {
                "type" : "Point",
                "coordinates" : [103.9009723,1.321011853]},
        "properties" : { "name" : "34 Eunos Crescent","price" : 430000,"sqft" : 645}
        },
         { "type" : "Feature",
        "id" : 6,
            "geometry" : {
                "type" : "Point",
                "coordinates" : [103.7036525,1.345835527]},
        "properties" : { "name" : "675B Jurong West Street 64","price" : 515000,"sqft" : 1194}
        },
         { "type" : "Feature",
        "id" : 7,
            "geometry" : {
                "type" : "Point",
                "coordinates" : [103.848183,1.354641571]},
        "properties" : { "name" : "207 Bishan Street 23","price" : 530000,"sqft" : 1108}
        },
         { "type" : "Feature",
        "id" : 8,
            "geometry" : {
                "type" : "Point",
                "coordinates" : [103.8299173,1.426496476]},
        "properties" : { "name" : "724 Yishun Street 71","price" : 590000,"sqft" : 1528}
        },
         { "type" : "Feature",
        "id" : 9,
            "geometry" : {
                "type" : "Point",
                "coordinates" : [103.8253899,1.283622096]},
        "properties" : { "name" : "25B Jalan Membina","price" : 704000,"sqft" : 968}
        },
         { "type" : "Feature",
        "id" : 10,
            "geometry" : {
                "type" : "Point",
                "coordinates" : [103.9551801,1.350016938]},
        "properties" : { "name" : "291 Tampines Street 22","price" : 460000,"sqft" : 1119}
        },
         { "type" : "Feature",
        "id" : 11,
            "geometry" : {
                "type" : "Point",
                "coordinates" : [103.8193907,1.278358458]},
        "properties" : { "name" : "7 Telok Blangah Crescent","price" : 233000,"sqft" : 333}
        },
         { "type" : "Feature",
        "id" : 12,
            "geometry" : {
                "type" : "Point",
                "coordinates" : [103.8855554,1.326487386]},
        "properties" : { "name" : "43 Circuit Road","price" : 240000,"sqft" : 452}
        },
         { "type" : "Feature",
        "id" : 13,
            "geometry" : {
                "type" : "Point",
                "coordinates" : [103.7986533,1.306802055]},
        "properties" : { "name" : "110 Commonwealth Crescent","price" : 250000,"sqft" : 484}
        },
         { "type" : "Feature",
        "id" : 14,
            "geometry" : {
                "type" : "Point",
                "coordinates" : [103.777886,1.442286689]},
        "properties" : { "name" : "16 Marsiling Lane","price" : 250000,"sqft" : 484}
        },
         { "type" : "Feature",
        "id" : 15,
            "geometry" : {
                "type" : "Point",
                "coordinates" : [103.9379318,1.334477017]},
        "properties" : { "name" : "101 Bedok North Avenue 4","price" : 260000,"sqft" : 484}
        },
         { "type" : "Feature",
        "id" : 16,
            "geometry" : {
                "type" : "Point",
                "coordinates" : [103.8538752,1.362003246]},
        "properties" : { "name" : "406 Ang Mo Kio Avenue 10","price" : 260000,"sqft" : 473}
        },
         { "type" : "Feature",
        "id" : 17,
            "geometry" : {
                "type" : "Point",
                "coordinates" : [103.8260625,1.289118652]},
        "properties" : { "name" : "48 Lower Delta Road","price" : 260000,"sqft" : 462}
        },
         { "type" : "Feature",
        "id" : 18,
            "geometry" : {
                "type" : "Point",
                "coordinates" : [103.9289217,1.33223586]},
        "properties" : { "name" : "514 Bedok North Avenue 2","price" : 260000,"sqft" : 484}
        },
         { "type" : "Feature",
        "id" : 19,
            "geometry" : {
                "type" : "Point",
                "coordinates" : [103.9248947,1.333014927]},
        "properties" : { "name" : "534 Bedok North Street 3","price" : 265000,"sqft" : 484}
        },
         { "type" : "Feature",
        "id" : 20,
            "geometry" : {
                "type" : "Point",
                "coordinates" : [103.8003946,1.304206895]},
        "properties" : { "name" : "82 Commonwealth Close","price" : 265000,"sqft" : 495}
        },
         { "type" : "Feature",
        "id" : 21,
            "geometry" : {
                "type" : "Point",
                "coordinates" : [103.7980225,1.297764344]},
        "properties" : { "name" : "37 Tanglin Halt Road","price" : 268000,"sqft" : 495}
        },
         { "type" : "Feature",
        "id" : 22,
            "geometry" : {
                "type" : "Point",
                "coordinates" : [103.9370919,1.334454864]},
        "properties" : { "name" : "106 Bedok North Avenue 4","price" : 270000,"sqft" : 484}
        },
         { "type" : "Feature",
        "id" : 23,
            "geometry" : {
                "type" : "Point",
                "coordinates" : [103.9248947,1.333014927]},
        "properties" : { "name" : "534 Bedok North Street 3","price" : 270000,"sqft" : 484}
        },
         { "type" : "Feature",
        "id" : 24,
            "geometry" : {
                "type" : "Point",
                "coordinates" : [103.8589943,1.326029942]},
        "properties" : { "name" : "27 Jalan Bahagia","price" : 272000,"sqft" : 602}
        },
         { "type" : "Feature",
        "id" : 25,
            "geometry" : {
                "type" : "Point",
                "coordinates" : [103.8583543,1.330080356]},
        "properties" : { "name" : "195 Kim Keat Avenue","price" : 275000,"sqft" : 581}
        },
         { "type" : "Feature",
        "id" : 26,
            "geometry" : {
                "type" : "Point",
                "coordinates" : [103.7110894,1.346497821]},
        "properties" : { "name" : "185 Boon Lay Avenue","price" : 278000,"sqft" : 635}
        },
         { "type" : "Feature",
        "id" : 27,
            "geometry" : {
                "type" : "Point",
                "coordinates" : [103.8477069,1.367910414]},
        "properties" : { "name" : "323 Ang Mo Kio Avenue 3","price" : 280000,"sqft" : 473}
        },
         { "type" : "Feature",
        "id" : 28,
            "geometry" : {
                "type" : "Point",
                "coordinates" : [103.8577704,1.326985571]},
        "properties" : { "name" : "34 Jalan Bahagia","price" : 280000,"sqft" : 56}
        },
         { "type" : "Feature",
        "id" : 29,
            "geometry" : {
                "type" : "Point",
                "coordinates" : [103.8860421,1.326153442]},
        "properties" : { "name" : "46 Circuit Road","price" : 280000,"sqft" : 559}
        },
         { "type" : "Feature",
        "id" : 30,
            "geometry" : {
                "type" : "Point",
                "coordinates" : [103.8861101,1.326646789]},
        "properties" : { "name" : "44 Circuit Road","price" : 282000,"sqft" : 559}
        },
         { "type" : "Feature",
        "id" : 31,
            "geometry" : {
                "type" : "Point",
                "coordinates" : [103.8575733,1.326730559]},
        "properties" : { "name" : "35 Jalan Bahagia","price" : 283000,"sqft" : 602}
        },
         { "type" : "Feature",
        "id" : 32,
            "geometry" : {
                "type" : "Point",
                "coordinates" : [103.8575733,1.326730559]},
        "properties" : { "name" : "35 Jalan Bahagia","price" : 283000,"sqft" : 603}
        },
         { "type" : "Feature",
        "id" : 33,
            "geometry" : {
                "type" : "Point",
                "coordinates" : [103.8939761,1.362713039]},
        "properties" : { "name" : "6 Hougang Avenue 3","price" : 283000,"sqft" : 635}
        },
         { "type" : "Feature",
        "id" : 34,
            "geometry" : {
                "type" : "Point",
                "coordinates" : [103.8101214,1.286755877]},
        "properties" : { "name" : "28 Hoy Fatt","price" : 283000,"sqft" : 506}
        },
         { "type" : "Feature",
        "id" : 35,
            "geometry" : {
                "type" : "Point",
                "coordinates" : [103.7102981,1.34526143]},
        "properties" : { "name" : "187 Boon Lay Avenue","price" : 285000,"sqft" : 635}
        },
         { "type" : "Feature",
        "id" : 36,
            "geometry" : {
                "type" : "Point",
                "coordinates" : [103.8583543,1.330080356]},
        "properties" : { "name" : "195 Kim Keat Avenue","price" : 285000,"sqft" : 710}
        },
         { "type" : "Feature",
        "id" : 37,
            "geometry" : {
                "type" : "Point",
                "coordinates" : [103.8583543,1.330080356]},
        "properties" : { "name" : "195 Kim Keat Avenue","price" : 285000,"sqft" : 765}
        },
         { "type" : "Feature",
        "id" : 38,
            "geometry" : {
                "type" : "Point",
                "coordinates" : [103.7766954,1.439911696]},
        "properties" : { "name" : "2 Marsiling Drive","price" : 285000,"sqft" : 699}
        },
         { "type" : "Feature",
        "id" : 39,
            "geometry" : {
                "type" : "Point",
                "coordinates" : [103.8363211,1.355192433]},
        "properties" : { "name" : "24 Sin Ming Road","price" : 285000,"sqft" : 699}
        },
         { "type" : "Feature",
        "id" : 40,
            "geometry" : {
                "type" : "Point",
                "coordinates" : [103.8202273,1.285967511]},
        "properties" : { "name" : "Hoy Fatt","price" : 285000,"sqft" : 505}
        },
         { "type" : "Feature",
        "id" : 41,
            "geometry" : {
                "type" : "Point",
                "coordinates" : [103.8856965,1.325788719]},
        "properties" : { "name" : "47 Circuit Road","price" : 285000,"sqft" : 602}
        },
         { "type" : "Feature",
        "id" : 42,
            "geometry" : {
                "type" : "Point",
                "coordinates" : [103.8855653,1.32488361]},
        "properties" : { "name" : "50 Circuit Road","price" : 285000,"sqft" : 602}
        },
         { "type" : "Feature",
        "id" : 43,
            "geometry" : {
                "type" : "Point",
                "coordinates" : [103.8864622,1.325020188]},
        "properties" : { "name" : "58 Circuit Road","price" : 285000,"sqft" : 603}
        },
         { "type" : "Feature",
        "id" : 44,
            "geometry" : {
                "type" : "Point",
                "coordinates" : [103.8857549,1.322651744]},
        "properties" : { "name" : "85 Circuit Road","price" : 285000,"sqft" : 645}
        },
         { "type" : "Feature",
        "id" : 45,
            "geometry" : {
                "type" : "Point",
                "coordinates" : [103.7766954,1.439911696]},
        "properties" : { "name" : "2 Marsiling Dr","price" : 285000,"sqft" : 720}
        },
         { "type" : "Feature",
        "id" : 46,
            "geometry" : {
                "type" : "Point",
                "coordinates" : [103.8931869,1.363144397]},
        "properties" : { "name" : "2 Hougang Avenue 3","price" : 287000,"sqft" : 635}
        },
         { "type" : "Feature",
        "id" : 47,
            "geometry" : {
                "type" : "Point",
                "coordinates" : [103.8587822,1.326628006]},
        "properties" : { "name" : "Jalan Bahagia","price" : 287000,"sqft" : 602}
        },
         { "type" : "Feature",
        "id" : 48,
            "geometry" : {
                "type" : "Point",
                "coordinates" : [103.8388649,1.287678217]},
        "properties" : { "name" : "9 Jalan kukoh","price" : 288000,"sqft" : 580}
        },
         { "type" : "Feature",
        "id" : 49,
            "geometry" : {
                "type" : "Point",
                "coordinates" : [103.7240502,1.335698739]},
        "properties" : { "name" : "121 Yuan Ching Road","price" : 290000,"sqft" : 657}
        },
         { "type" : "Feature",
        "id" : 50,
            "geometry" : {
                "type" : "Point",
                "coordinates" : [103.7787019,1.437806281]},
        "properties" : { "name" : "129 Marsiling Rise","price" : 290000,"sqft" : 646}
        },
         { "type" : "Feature",
        "id" : 51,
            "geometry" : {
                "type" : "Point",
                "coordinates" : [103.7102981,1.34526143]},
        "properties" : { "name" : "187 Boon Lay Avenue","price" : 290000,"sqft" : 635}
        },
         { "type" : "Feature",
        "id" : 52,
            "geometry" : {
                "type" : "Point",
                "coordinates" : [103.8877739,1.33016255]},
        "properties" : { "name" : "22 Balam Road","price" : 290000,"sqft" : 645}
        },
         { "type" : "Feature",
        "id" : 53,
            "geometry" : {
                "type" : "Point",
                "coordinates" : [103.8877739,1.33016255]},
        "properties" : { "name" : "22 Balam Road","price" : 290000,"sqft" : 646}
        },
         { "type" : "Feature",
        "id" : 54,
            "geometry" : {
                "type" : "Point",
                "coordinates" : [103.8393993,1.357283529]},
        "properties" : { "name" : "22 Sin Ming Road","price" : 290000,"sqft" : 732}
        },
         { "type" : "Feature",
        "id" : 55,
            "geometry" : {
                "type" : "Point",
                "coordinates" : [103.8866887,1.324713851]},
        "properties" : { "name" : "57 Circuit Road","price" : 290000,"sqft" : 645}
        },
         { "type" : "Feature",
        "id" : 56,
            "geometry" : {
                "type" : "Point",
                "coordinates" : [103.8930091,1.364134655]},
        "properties" : { "name" : "1 Hougang Avenue 3","price" : 290000,"sqft" : 635}
        },
         { "type" : "Feature",
        "id" : 57,
            "geometry" : {
                "type" : "Point",
                "coordinates" : [103.7140069,1.347291578]},
        "properties" : { "name" : "208 Boon Lay Place","price" : 290000,"sqft" : 699}
        },
         { "type" : "Feature",
        "id" : 58,
            "geometry" : {
                "type" : "Point",
                "coordinates" : [103.7577644,1.347858389]},
        "properties" : { "name" : "278 Bukit Batok East Avenue 3","price" : 291000,"sqft" : 640}
        },
         { "type" : "Feature",
        "id" : 59,
            "geometry" : {
                "type" : "Point",
                "coordinates" : [103.7239404,1.334991655]},
        "properties" : { "name" : "120 Ho Ching Road","price" : 292000,"sqft" : 699}
        },
         { "type" : "Feature",
        "id" : 60,
            "geometry" : {
                "type" : "Point",
                "coordinates" : [103.8877739,1.33016255]},
        "properties" : { "name" : "22 Balam Road","price" : 292000,"sqft" : 624}
        },
         { "type" : "Feature",
        "id" : 61,
            "geometry" : {
                "type" : "Point",
                "coordinates" : [103.7757409,1.440644516]},
        "properties" : { "name" : "1 Marsiling Drive","price" : 293000,"sqft" : 699}
        },
         { "type" : "Feature",
        "id" : 62,
            "geometry" : {
                "type" : "Point",
                "coordinates" : [103.7102981,1.34526143]},
        "properties" : { "name" : "187 Boon Lay Avenue","price" : 293000,"sqft" : 635}
        },
         { "type" : "Feature",
        "id" : 63,
            "geometry" : {
                "type" : "Point",
                "coordinates" : [103.7063352,1.346694264]},
        "properties" : { "name" : "167 Boon Lay Drive","price" : 295000,"sqft" : 753}
        },
         { "type" : "Feature",
        "id" : 64,
            "geometry" : {
                "type" : "Point",
                "coordinates" : [103.7129647,1.347639741]},
        "properties" : { "name" : "210 Boon Lay Place","price" : 295000,"sqft" : 699}
        },
         { "type" : "Feature",
        "id" : 65,
            "geometry" : {
                "type" : "Point",
                "coordinates" : [103.90233,1.32377601]},
        "properties" : { "name" : "24 Eunos Crescent","price" : 295000,"sqft" : 635}
        },
         { "type" : "Feature",
        "id" : 66,
            "geometry" : {
                "type" : "Point",
                "coordinates" : [103.9876629,1.388868481]},
        "properties" : { "name" : "4 Changi Village Road","price" : 295000,"sqft" : 710}
        },
         { "type" : "Feature",
        "id" : 67,
            "geometry" : {
                "type" : "Point",
                "coordinates" : [103.7449952,1.364467685]},
        "properties" : { "name" : "410 Bukit Batok West Avenue 4","price" : 295000,"sqft" : 731}
        },
         { "type" : "Feature",
        "id" : 68,
            "geometry" : {
                "type" : "Point",
                "coordinates" : [103.741928,1.321041079]},
        "properties" : { "name" : "43 Teban Gardens Road","price" : 295000,"sqft" : 731}
        },
         { "type" : "Feature",
        "id" : 69,
            "geometry" : {
                "type" : "Point",
                "coordinates" : [103.7763537,1.442072309]},
        "properties" : { "name" : "6 Marsiling Drive","price" : 295000,"sqft" : 699}
        },
         { "type" : "Feature",
        "id" : 70,
            "geometry" : {
                "type" : "Point",
                "coordinates" : [103.8870562,1.325744478]},
        "properties" : { "name" : "61 Circuit Road","price" : 295000,"sqft" : 645}
        },
         { "type" : "Feature",
        "id" : 71,
            "geometry" : {
                "type" : "Point",
                "coordinates" : [103.7777324,1.442650412]},
        "properties" : { "name" : "17 Marsiling Lane","price" : 295000,"sqft" : 699}
        },
         { "type" : "Feature",
        "id" : 72,
            "geometry" : {
                "type" : "Point",
                "coordinates" : [103.8857549,1.322651744]},
        "properties" : { "name" : "85 Circuit","price" : 295000,"sqft" : 645}
        },
         { "type" : "Feature",
        "id" : 73,
            "geometry" : {
                "type" : "Point",
                "coordinates" : [103.8865367,1.330984739]},
        "properties" : { "name" : "23 Balam Road","price" : 297000,"sqft" : 66}
        },
         { "type" : "Feature",
        "id" : 74,
            "geometry" : {
                "type" : "Point",
                "coordinates" : [103.8514177,1.348298755]},
        "properties" : { "name" : "194","price" : 297000,"sqft" : 710}
        },
         { "type" : "Feature",
        "id" : 75,
            "geometry" : {
                "type" : "Point",
                "coordinates" : [103.7786213,1.440513462]},
        "properties" : { "name" : "12 Marsiling Lane","price" : 298000,"sqft" : 667}
        },
         { "type" : "Feature",
        "id" : 76,
            "geometry" : {
                "type" : "Point",
                "coordinates" : [103.8269595,1.278148485]},
        "properties" : { "name" : "137 Jalan Bukit Merah","price" : 298000,"sqft" : 635}
        },
         { "type" : "Feature",
        "id" : 77,
            "geometry" : {
                "type" : "Point",
                "coordinates" : [103.7251801,1.349944779]},
        "properties" : { "name" : "492 Jurong West Street 41","price" : 298000,"sqft" : 65}
        },
         { "type" : "Feature",
        "id" : 78,
            "geometry" : {
                "type" : "Point",
                "coordinates" : [103.9878484,1.38853377]},
        "properties" : { "name" : "1 Changi Village Road","price" : 300000,"sqft" : 710}
        },
         { "type" : "Feature",
        "id" : 79,
            "geometry" : {
                "type" : "Point",
                "coordinates" : [103.8012688,1.30769729]},
        "properties" : { "name" : "100 Commonwealth Crescent","price" : 300000,"sqft" : 653}
        },
         { "type" : "Feature",
        "id" : 80,
            "geometry" : {
                "type" : "Point",
                "coordinates" : [103.7241235,1.333797702]},
        "properties" : { "name" : "114 Ho Ching Road","price" : 300000,"sqft" : 721}
        },
         { "type" : "Feature",
        "id" : 81,
            "geometry" : {
                "type" : "Point",
                "coordinates" : [103.8628047,1.337283529]},
        "properties" : { "name" : "115 Potong Pasir Avenue 1","price" : 300000,"sqft" : 721}
        },
         { "type" : "Feature",
        "id" : 82,
            "geometry" : {
                "type" : "Point",
                "coordinates" : [103.7786213,1.440513462]},
        "properties" : { "name" : "12 Marsiling Lane","price" : 300000,"sqft" : 699}
        },
         { "type" : "Feature",
        "id" : 83,
            "geometry" : {
                "type" : "Point",
                "coordinates" : [103.7777324,1.442650412]},
        "properties" : { "name" : "17 Marsiling Lane","price" : 300000,"sqft" : 699}
        },
         { "type" : "Feature",
        "id" : 84,
            "geometry" : {
                "type" : "Point",
                "coordinates" : [103.7740211,1.44420339]},
        "properties" : { "name" : "204 Marsiling Drive","price" : 300000,"sqft" : 725}
        },
         { "type" : "Feature",
        "id" : 85,
            "geometry" : {
                "type" : "Point",
                "coordinates" : [103.760075,1.348691067]},
        "properties" : { "name" : "267 Bukit Batok East Avenue 4","price" : 300000,"sqft" : 64}
        },
         { "type" : "Feature",
        "id" : 86,
            "geometry" : {
                "type" : "Point",
                "coordinates" : [103.7417502,1.319878493]},
        "properties" : { "name" : "34 Teban Gardens Road","price" : 300000,"sqft" : 828}
        },
         { "type" : "Feature",
        "id" : 87,
            "geometry" : {
                "type" : "Point",
                "coordinates" : [103.7449858,1.364809476]},
        "properties" : { "name" : "408 Bukit Batok West Avenue 4","price" : 300000,"sqft" : 721}
        },
         { "type" : "Feature",
        "id" : 88,
            "geometry" : {
                "type" : "Point",
                "coordinates" : [103.7482559,1.320760477]},
        "properties" : { "name" : "415 Pandan Gardens","price" : 300000,"sqft" : 796}
        },
         { "type" : "Feature",
        "id" : 89,
            "geometry" : {
                "type" : "Point",
                "coordinates" : [103.724359,1.349703883]},
        "properties" : { "name" : "495 Jurong West Street 41","price" : 300000,"sqft" : 688}
        },
         { "type" : "Feature",
        "id" : 90,
            "geometry" : {
                "type" : "Point",
                "coordinates" : [103.724359,1.349703883]},
        "properties" : { "name" : "495 Jurong West Street 41","price" : 300000,"sqft" : 689}
        },
         { "type" : "Feature",
        "id" : 91,
            "geometry" : {
                "type" : "Point",
                "coordinates" : [103.724359,1.349703883]},
        "properties" : { "name" : "495 Jurong West Street 41","price" : 300000,"sqft" : 800}
        },
         { "type" : "Feature",
        "id" : 92,
            "geometry" : {
                "type" : "Point",
                "coordinates" : [103.724359,1.349703883]},
        "properties" : { "name" : "495 Jurong West Street 41","price" : 300000,"sqft" : 700}
        },
         { "type" : "Feature",
        "id" : 93,
            "geometry" : {
                "type" : "Point",
                "coordinates" : [103.8872033,1.327399643]},
        "properties" : { "name" : "65 Circuit Road","price" : 300000,"sqft" : 635}
        },
         { "type" : "Feature",
        "id" : 94,
            "geometry" : {
                "type" : "Point",
                "coordinates" : [103.8856043,1.323232439]},
        "properties" : { "name" : "87 Circuit Road","price" : 300000,"sqft" : 646}
        },
         { "type" : "Feature",
        "id" : 95,
            "geometry" : {
                "type" : "Point",
                "coordinates" : [103.8288783,1.435139825]},
        "properties" : { "name" : "113 Yishun Ring Road","price" : 302000,"sqft" : 688}
        },
         { "type" : "Feature",
        "id" : 96,
            "geometry" : {
                "type" : "Point",
                "coordinates" : [103.7792758,1.441095617]},
        "properties" : { "name" : "13 Marsiling Lane","price" : 302000,"sqft" : 699}
        },
         { "type" : "Feature",
        "id" : 97,
            "geometry" : {
                "type" : "Point",
                "coordinates" : [103.7130145,1.349130707]},
        "properties" : { "name" : "212 Boon Lay Place","price" : 302000,"sqft" : 710}
        },
         { "type" : "Feature",
        "id" : 98,
            "geometry" : {
                "type" : "Point",
                "coordinates" : [103.8318899,1.423530034]},
        "properties" : { "name" : "774 Yishun Avenue 3","price" : 302000,"sqft" : 688}
        },
         { "type" : "Feature",
        "id" : 99,
            "geometry" : {
                "type" : "Point",
                "coordinates" : [103.7466945,1.319016988]},
        "properties" : { "name" : "411 Pandan Gardens","price" : 302000,"sqft" : 785}
        },
         { "type" : "Feature",
        "id" : 100,
            "geometry" : {
                "type" : "Point",
                "coordinates" : [103.7593254,1.348639121]},
        "properties" : { "name" : "269 Bukit Batok East Avenue 4","price" : 303000,"sqft" : 680}
        },
         { "type" : "Feature",
        "id" : 101,
            "geometry" : {
                "type" : "Point",
                "coordinates" : [103.8870562,1.325744478]},
        "properties" : { "name" : "61 Circuit","price" : 304000,"sqft" : 657}
        },
         { "type" : "Feature",
        "id" : 102,
            "geometry" : {
                "type" : "Point",
                "coordinates" : [103.8628047,1.337283529]},
        "properties" : { "name" : "115 Potong Pasir Avenue 1","price" : 305000,"sqft" : 721}
        },
         { "type" : "Feature",
        "id" : 103,
            "geometry" : {
                "type" : "Point",
                "coordinates" : [103.7128493,1.349455146]},
        "properties" : { "name" : "213 Boon Lay Place","price" : 305000,"sqft" : 731}
        },
         { "type" : "Feature",
        "id" : 104,
            "geometry" : {
                "type" : "Point",
                "coordinates" : [103.7743737,1.441899367]},
        "properties" : { "name" : "22 Marsiling Drive","price" : 305000,"sqft" : 721}
        },
         { "type" : "Feature",
        "id" : 105,
            "geometry" : {
                "type" : "Point",
                "coordinates" : [103.8393993,1.357283529]},
        "properties" : { "name" : "22 Sin Ming Road","price" : 305000,"sqft" : 731}
        },
         { "type" : "Feature",
        "id" : 106,
            "geometry" : {
                "type" : "Point",
                "coordinates" : [103.7732962,1.441540779]},
        "properties" : { "name" : "23 Marsiling Drive","price" : 305000,"sqft" : 721}
        },
         { "type" : "Feature",
        "id" : 107,
            "geometry" : {
                "type" : "Point",
                "coordinates" : [103.90233,1.32377601]},
        "properties" : { "name" : "24 Eunos Crescent","price" : 305000,"sqft" : 635}
        },
         { "type" : "Feature",
        "id" : 108,
            "geometry" : {
                "type" : "Point",
                "coordinates" : [103.7557424,1.377618381]},
        "properties" : { "name" : "26 Teck Whye Lane","price" : 305000,"sqft" : 731}
        },
         { "type" : "Feature",
        "id" : 109,
            "geometry" : {
                "type" : "Point",
                "coordinates" : [103.7512273,1.361342395]},
        "properties" : { "name" : "359 Bukit Batok Street 31","price" : 305000,"sqft" : 730}
        },
         { "type" : "Feature",
        "id" : 110,
            "geometry" : {
                "type" : "Point",
                "coordinates" : [103.7512273,1.361342395]},
        "properties" : { "name" : "359 Bukit Batok Street 31","price" : 305000,"sqft" : 645}
        },
         { "type" : "Feature",
        "id" : 111,
            "geometry" : {
                "type" : "Point",
                "coordinates" : [103.8864848,1.328174971]},
        "properties" : { "name" : "37 Circuit Road","price" : 305000,"sqft" : 600}
        },
         { "type" : "Feature",
        "id" : 112,
            "geometry" : {
                "type" : "Point",
                "coordinates" : [103.7449952,1.364467685]},
        "properties" : { "name" : "410 Bukit Batok West Avenue 4","price" : 305000,"sqft" : 732}
        },
         { "type" : "Feature",
        "id" : 113,
            "geometry" : {
                "type" : "Point",
                "coordinates" : [103.741928,1.321041079]},
        "properties" : { "name" : "43 Teban Gardens Road","price" : 305000,"sqft" : 731}
        },
         { "type" : "Feature",
        "id" : 114,
            "geometry" : {
                "type" : "Point",
                "coordinates" : [103.7497976,1.355881831]},
        "properties" : { "name" : "533 Bukit Batok Street 51","price" : 305000,"sqft" : 699}
        },
         { "type" : "Feature",
        "id" : 115,
            "geometry" : {
                "type" : "Point",
                "coordinates" : [103.8870562,1.325744478]},
        "properties" : { "name" : "61 Circuit","price" : 305000,"sqft" : 656}
        },
         { "type" : "Feature",
        "id" : 116,
            "geometry" : {
                "type" : "Point",
                "coordinates" : [103.7449346,1.362507525]},
        "properties" : { "name" : "421 Bukit Batok West Avenue 2","price" : 307000,"sqft" : 731}
        },
         { "type" : "Feature",
        "id" : 117,
            "geometry" : {
                "type" : "Point",
                "coordinates" : [103.8311282,1.43498549]},
        "properties" : { "name" : "122 Yishun Street 11","price" : 308000,"sqft" : 721}
        },
         { "type" : "Feature",
        "id" : 118,
            "geometry" : {
                "type" : "Point",
                "coordinates" : [103.932465,1.331487821]},
        "properties" : { "name" : "503 Bedok North Street 3","price" : 308000,"sqft" : 635}
        },
         { "type" : "Feature",
        "id" : 119,
            "geometry" : {
                "type" : "Point",
                "coordinates" : [103.7553232,1.380411013]},
        "properties" : { "name" : "10 Teck Whye Avenue","price" : 310000,"sqft" : 721}
        },
         { "type" : "Feature",
        "id" : 120,
            "geometry" : {
                "type" : "Point",
                "coordinates" : [103.7461696,1.347006161]},
        "properties" : { "name" : "109 Bukit Batok West Avenue 6","price" : 310000,"sqft" : 635}
        },
         { "type" : "Feature",
        "id" : 121,
            "geometry" : {
                "type" : "Point",
                "coordinates" : [103.8311373,1.434620965]},
        "properties" : { "name" : "124 Yishun Street 11","price" : 310000,"sqft" : 721}
        },
         { "type" : "Feature",
        "id" : 122,
            "geometry" : {
                "type" : "Point",
                "coordinates" : [103.8301476,1.433535943]},
        "properties" : { "name" : "126 Yishun Street 11","price" : 310000,"sqft" : 721}
        },
         { "type" : "Feature",
        "id" : 123,
            "geometry" : {
                "type" : "Point",
                "coordinates" : [103.8309751,1.434187161]},
        "properties" : { "name" : "127 Yishun Street 11","price" : 310000,"sqft" : 721}
        },
         { "type" : "Feature",
        "id" : 124,
            "geometry" : {
                "type" : "Point",
                "coordinates" : [103.8275363,1.278286474]},
        "properties" : { "name" : "136 Jalan Bukit Merah","price" : 310000,"sqft" : 635}
        },
         { "type" : "Feature",
        "id" : 125,
            "geometry" : {
                "type" : "Point",
                "coordinates" : [103.7593254,1.348639121]},
        "properties" : { "name" : "269 Bukit Batok East Avenue 4","price" : 310000,"sqft" : 688}
        },
         { "type" : "Feature",
        "id" : 126,
            "geometry" : {
                "type" : "Point",
                "coordinates" : [103.7692804,1.376489161]},
        "properties" : { "name" : "127 Pending","price" : 310000,"sqft" : 689}
        },
         { "type" : "Feature",
        "id" : 127,
            "geometry" : {
                "type" : "Point",
                "coordinates" : [103.8483992,1.428878316]},
        "properties" : { "name" : "394 Yishun Avenue 6","price" : 310000,"sqft" : 785}
        },
         { "type" : "Feature",
        "id" : 128,
            "geometry" : {
                "type" : "Point",
                "coordinates" : [103.8275211,1.432217292]},
        "properties" : { "name" : "107 Yishun Ring","price" : 310000,"sqft" : 721}
        },
         { "type" : "Feature",
        "id" : 129,
            "geometry" : {
                "type" : "Point",
                "coordinates" : [103.7457741,1.362198634]},
        "properties" : { "name" : "422 Bukit Batok West Avenue 2","price" : 310000,"sqft" : 688}
        },
         { "type" : "Feature",
        "id" : 130,
            "geometry" : {
                "type" : "Point",
                "coordinates" : [103.9323914,1.331870216]},
        "properties" : { "name" : "504 Bedok North Street 3","price" : 310000,"sqft" : 645}
        },
         { "type" : "Feature",
        "id" : 131,
            "geometry" : {
                "type" : "Point",
                "coordinates" : [103.7497976,1.355881831]},
        "properties" : { "name" : "533 Bukit Batok Street 51","price" : 310000,"sqft" : 635}
        },
         { "type" : "Feature",
        "id" : 132,
            "geometry" : {
                "type" : "Point",
                "coordinates" : [103.7497976,1.355881831]},
        "properties" : { "name" : "533 Bukit Batok Street 51","price" : 310000,"sqft" : 645}
        },
         { "type" : "Feature",
        "id" : 133,
            "geometry" : {
                "type" : "Point",
                "coordinates" : [103.7967543,1.299603898]},
        "properties" : { "name" : "65 Commonwealth Drive","price" : 310000,"sqft" : 50}
        },
         { "type" : "Feature",
        "id" : 134,
            "geometry" : {
                "type" : "Point",
                "coordinates" : [103.7967543,1.299603898]},
        "properties" : { "name" : "65 Commonwealth Drive","price" : 310000,"sqft" : 527}
        },
         { "type" : "Feature",
        "id" : 135,
            "geometry" : {
                "type" : "Point",
                "coordinates" : [103.8318899,1.423530034]},
        "properties" : { "name" : "774 Yishun Avenue 3","price" : 310000,"sqft" : 688}
        },
         { "type" : "Feature",
        "id" : 136,
            "geometry" : {
                "type" : "Point",
                "coordinates" : [103.8311282,1.43498549]},
        "properties" : { "name" : "122 Yishun Street 11","price" : 310000,"sqft" : 764}
        },
         { "type" : "Feature",
        "id" : 137,
            "geometry" : {
                "type" : "Point",
                "coordinates" : [103.8541678,1.374068884]},
        "properties" : { "name" : "534","price" : 310000,"sqft" : 646}
        },
         { "type" : "Feature",
        "id" : 138,
            "geometry" : {
                "type" : "Point",
                "coordinates" : [103.8541393,1.321590888]},
        "properties" : { "name" : "98 Whampoa Dr","price" : 310000,"sqft" : 699}
        },
         { "type" : "Feature",
        "id" : 139,
            "geometry" : {
                "type" : "Point",
                "coordinates" : [103.8281052,1.425750956]},
        "properties" : { "name" : "717 Yishun Street 71","price" : 310000,"sqft" : 688}
        },
         { "type" : "Feature",
        "id" : 140,
            "geometry" : {
                "type" : "Point",
                "coordinates" : [103.7983868,1.296567611]},
        "properties" : { "name" : "33 Tanglin Halt Road","price" : 313000,"sqft" : 56}
        },
         { "type" : "Feature",
        "id" : 141,
            "geometry" : {
                "type" : "Point",
                "coordinates" : [103.8307589,1.426967796]},
        "properties" : { "name" : "725 Yishun Street 71","price" : 313000,"sqft" : 688}
        },
         { "type" : "Feature",
        "id" : 142,
            "geometry" : {
                "type" : "Point",
                "coordinates" : [103.8558793,1.323145316]},
        "properties" : { "name" : "86 Whampoa Drive","price" : 313000,"sqft" : 710}
        },
         { "type" : "Feature",
        "id" : 143,
            "geometry" : {
                "type" : "Point",
                "coordinates" : [103.8549378,1.321279542]},
        "properties" : { "name" : "97 Whampoa Drive","price" : 313000,"sqft" : 710}
        },
         { "type" : "Feature",
        "id" : 144,
            "geometry" : {
                "type" : "Point",
                "coordinates" : [103.8534425,1.339404432]},
        "properties" : { "name" : "1 Lorong 7 Toa Payoh","price" : 315000,"sqft" : 710}
        },
         { "type" : "Feature",
        "id" : 145,
            "geometry" : {
                "type" : "Point",
                "coordinates" : [103.8288925,1.431368911]},
        "properties" : { "name" : "103 Yishun Ring Road","price" : 315000,"sqft" : 721}
        },
         { "type" : "Feature",
        "id" : 146,
            "geometry" : {
                "type" : "Point",
                "coordinates" : [103.8275211,1.432217292]},
        "properties" : { "name" : "107 Yishun Ring Road","price" : 315000,"sqft" : 721}
        },
         { "type" : "Feature",
        "id" : 147,
            "geometry" : {
                "type" : "Point",
                "coordinates" : [103.8286635,1.435961505]},
        "properties" : { "name" : "118 Yishun Ring Road","price" : 315000,"sqft" : 796}
        },
         { "type" : "Feature",
        "id" : 148,
            "geometry" : {
                "type" : "Point",
                "coordinates" : [103.8317931,1.434569259]},
        "properties" : { "name" : "123 Yishun Street 11","price" : 315000,"sqft" : 731}
        },
         { "type" : "Feature",
        "id" : 149,
            "geometry" : {
                "type" : "Point",
                "coordinates" : [103.8317931,1.434569259]},
        "properties" : { "name" : "123 Yishun Street 11","price" : 315000,"sqft" : 721}
        },
         { "type" : "Feature",
        "id" : 150,
            "geometry" : {
                "type" : "Point",
                "coordinates" : [103.7550546,1.378596262]},
        "properties" : { "name" : "16 Teck Whye Lane","price" : 315000,"sqft" : 721}
        },
         { "type" : "Feature",
        "id" : 151,
            "geometry" : {
                "type" : "Point",
                "coordinates" : [103.7116291,1.345610992]},
        "properties" : { "name" : "186 Boon Lay Avenue","price" : 315000,"sqft" : 68}
        },
         { "type" : "Feature",
        "id" : 152,
            "geometry" : {
                "type" : "Point",
                "coordinates" : [103.7547364,1.349833095]},
        "properties" : { "name" : "238 Bukit Batok East Avenue 5","price" : 315000,"sqft" : 721}
        },
         { "type" : "Feature",
        "id" : 153,
            "geometry" : {
                "type" : "Point",
                "coordinates" : [103.8396865,1.433593713]},
        "properties" : { "name" : "239 Yishun Ring Road","price" : 315000,"sqft" : 721}
        },
         { "type" : "Feature",
        "id" : 154,
            "geometry" : {
                "type" : "Point",
                "coordinates" : [103.7996955,1.297890082]},
        "properties" : { "name" : "25 Tanglin Halt Road","price" : 315000,"sqft" : 527}
        },
         { "type" : "Feature",
        "id" : 155,
            "geometry" : {
                "type" : "Point",
                "coordinates" : [103.8611083,1.322597932]},
        "properties" : { "name" : "3 Saint George's Road","price" : 315000,"sqft" : 640}
        },
         { "type" : "Feature",
        "id" : 156,
            "geometry" : {
                "type" : "Point",
                "coordinates" : [103.7724047,1.442565076]},
        "properties" : { "name" : "30 Marsiling Drive","price" : 315000,"sqft" : 785}
        },
         { "type" : "Feature",
        "id" : 157,
            "geometry" : {
                "type" : "Point",
                "coordinates" : [103.7746269,1.429929241]},
        "properties" : { "name" : "306 Woodlands Street 31","price" : 315000,"sqft" : 688}
        },
         { "type" : "Feature",
        "id" : 158,
            "geometry" : {
                "type" : "Point",
                "coordinates" : [103.798387,1.296808836]},
        "properties" : { "name" : "34 Tanglin Halt Road","price" : 315000,"sqft" : 602}
        },
         { "type" : "Feature",
        "id" : 159,
            "geometry" : {
                "type" : "Point",
                "coordinates" : [103.8452297,1.425786907]},
        "properties" : { "name" : "354 Yishun Ring Road","price" : 315000,"sqft" : 70}
        },
         { "type" : "Feature",
        "id" : 160,
            "geometry" : {
                "type" : "Point",
                "coordinates" : [103.8275211,1.432217292]},
        "properties" : { "name" : "107 Yishun Ring","price" : 315000,"sqft" : 721}
        },
         { "type" : "Feature",
        "id" : 161,
            "geometry" : {
                "type" : "Point",
                "coordinates" : [103.7985451,1.298956996]},
        "properties" : { "name" : "44 Tanglin Halt Road","price" : 315000,"sqft" : 603}
        },
         { "type" : "Feature",
        "id" : 162,
            "geometry" : {
                "type" : "Point",
                "coordinates" : [103.8524936,1.337781385]},
        "properties" : { "name" : "51 Lorong 6 Toa Payoh","price" : 315000,"sqft" : 678}
        },
         { "type" : "Feature",
        "id" : 163,
            "geometry" : {
                "type" : "Point",
                "coordinates" : [103.8514862,1.33704231]},
        "properties" : { "name" : "57 Lorong 5 Toa Payoh","price" : 315000,"sqft" : 699}
        },
         { "type" : "Feature",
        "id" : 164,
            "geometry" : {
                "type" : "Point",
                "coordinates" : [103.8823208,1.370508479]},
        "properties" : { "name" : "623 Hougang Avenue 8","price" : 315000,"sqft" : 646}
        },
         { "type" : "Feature",
        "id" : 165,
            "geometry" : {
                "type" : "Point",
                "coordinates" : [103.8003946,1.304206895]},
        "properties" : { "name" : "82 Commonwealth Close","price" : 315000,"sqft" : 645}
        },
         { "type" : "Feature",
        "id" : 166,
            "geometry" : {
                "type" : "Point",
                "coordinates" : [103.8275211,1.432217292]},
        "properties" : { "name" : "107 Yishun Ring Road","price" : 316000,"sqft" : 721}
        },
         { "type" : "Feature",
        "id" : 167,
            "geometry" : {
                "type" : "Point",
                "coordinates" : [103.828616,1.43320913]},
        "properties" : { "name" : "111 Yishun Ring Road","price" : 316000,"sqft" : 764}
        },
         { "type" : "Feature",
        "id" : 168,
            "geometry" : {
                "type" : "Point",
                "coordinates" : [103.7572374,1.349180572]},
        "properties" : { "name" : "244 Bukit Batok East Avenue 5","price" : 316000,"sqft" : 721}
        },
         { "type" : "Feature",
        "id" : 169,
            "geometry" : {
                "type" : "Point",
                "coordinates" : [103.7470649,1.360585808]},
        "properties" : { "name" : "316 Bukit Batok Street 32","price" : 316000,"sqft" : 731}
        },
         { "type" : "Feature",
        "id" : 170,
            "geometry" : {
                "type" : "Point",
                "coordinates" : [103.8281335,1.435031714]},
        "properties" : { "name" : "116 Yishun Ring Road","price" : 317000,"sqft" : 796}
        },
         { "type" : "Feature",
        "id" : 171,
            "geometry" : {
                "type" : "Point",
                "coordinates" : [103.7809406,1.436510405]},
        "properties" : { "name" : "103 Woodlands Street 13","price" : 318000,"sqft" : 67}
        },
         { "type" : "Feature",
        "id" : 172,
            "geometry" : {
                "type" : "Point",
                "coordinates" : [103.7243638,1.333196604]},
        "properties" : { "name" : "113 Tao Ching Road","price" : 318000,"sqft" : 818}
        },
         { "type" : "Feature",
        "id" : 173,
            "geometry" : {
                "type" : "Point",
                "coordinates" : [103.8281335,1.435031714]},
        "properties" : { "name" : "116 Yishun Ring Road","price" : 318000,"sqft" : 796}
        },
         { "type" : "Feature",
        "id" : 174,
            "geometry" : {
                "type" : "Point",
                "coordinates" : [103.772532,1.446780104]},
        "properties" : { "name" : "217 Marsiling Crescent","price" : 318000,"sqft" : 796}
        },
         { "type" : "Feature",
        "id" : 175,
            "geometry" : {
                "type" : "Point",
                "coordinates" : [103.7588725,1.351271252]},
        "properties" : { "name" : "258 Bukit Batok East Avenue 4","price" : 318000,"sqft" : 785}
        },
         { "type" : "Feature",
        "id" : 176,
            "geometry" : {
                "type" : "Point",
                "coordinates" : [103.9158721,1.33225284]},
        "properties" : { "name" : "615 Bedok Reservoir Road","price" : 318000,"sqft" : 731}
        },
         { "type" : "Feature",
        "id" : 177,
            "geometry" : {
                "type" : "Point",
                "coordinates" : [103.8868068,1.321723885]},
        "properties" : { "name" : "114","price" : 318000,"sqft" : 818}
        },
         { "type" : "Feature",
        "id" : 178,
            "geometry" : {
                "type" : "Point",
                "coordinates" : [103.8534425,1.339404432]},
        "properties" : { "name" : "1 Lorong 7 Toa Payoh","price" : 320000,"sqft" : 721}
        },
         { "type" : "Feature",
        "id" : 179,
            "geometry" : {
                "type" : "Point",
                "coordinates" : [103.8012688,1.30769729]},
        "properties" : { "name" : "100 Commonwealth Crescent","price" : 320000,"sqft" : 807}
        },
         { "type" : "Feature",
        "id" : 180,
            "geometry" : {
                "type" : "Point",
                "coordinates" : [103.8357224,1.434026557]},
        "properties" : { "name" : "222 Yishun Street 21","price" : 320000,"sqft" : 721}
        },
         { "type" : "Feature",
        "id" : 181,
            "geometry" : {
                "type" : "Point",
                "coordinates" : [103.9093918,1.328768411]},
        "properties" : { "name" : "103 Bedok Reservoir Road","price" : 320000,"sqft" : 731}
        },
         { "type" : "Feature",
        "id" : 182,
            "geometry" : {
                "type" : "Point",
                "coordinates" : [103.9093918,1.328768411]},
        "properties" : { "name" : "103 Bedok Reservoir Road","price" : 320000,"sqft" : 721}
        },
         { "type" : "Feature",
        "id" : 183,
            "geometry" : {
                "type" : "Point",
                "coordinates" : [103.8710145,1.370243937]},
        "properties" : { "name" : "106 Serangoon North Avenue 1","price" : 320000,"sqft" : 646}
        },
         { "type" : "Feature",
        "id" : 184,
            "geometry" : {
                "type" : "Point",
                "coordinates" : [103.8277285,1.435545341]},
        "properties" : { "name" : "117 Yishun Ring Road","price" : 320000,"sqft" : 828}
        },
         { "type" : "Feature",
        "id" : 185,
            "geometry" : {
                "type" : "Point",
                "coordinates" : [103.8277285,1.435545341]},
        "properties" : { "name" : "117 Yishun Ring Road","price" : 320000,"sqft" : 796}
        },
         { "type" : "Feature",
        "id" : 186,
            "geometry" : {
                "type" : "Point",
                "coordinates" : [103.83014,1.43436257]},
        "properties" : { "name" : "121 Yishun Street 11","price" : 320000,"sqft" : 764}
        },
         { "type" : "Feature",
        "id" : 187,
            "geometry" : {
                "type" : "Point",
                "coordinates" : [103.8305322,1.43425641]},
        "properties" : { "name" : "125 Yishun Street 11","price" : 320000,"sqft" : 721}
        },
         { "type" : "Feature",
        "id" : 188,
            "geometry" : {
                "type" : "Point",
                "coordinates" : [103.7445006,1.351589711]},
        "properties" : { "name" : "134 Bukit Batok West Avenue 6","price" : 320000,"sqft" : 731}
        },
         { "type" : "Feature",
        "id" : 189,
            "geometry" : {
                "type" : "Point",
                "coordinates" : [103.7445006,1.351589711]},
        "properties" : { "name" : "134 Bukit Batok West Avenue 6","price" : 320000,"sqft" : 721}
        },
         { "type" : "Feature",
        "id" : 190,
            "geometry" : {
                "type" : "Point",
                "coordinates" : [103.7444753,1.350449031]},
        "properties" : { "name" : "138 Bukit Batok West Avenue 6","price" : 320000,"sqft" : 720}
        },
         { "type" : "Feature",
        "id" : 191,
            "geometry" : {
                "type" : "Point",
                "coordinates" : [103.8412359,1.376278364]},
        "properties" : { "name" : "154 Ang Mo Kio Avenue 5","price" : 320000,"sqft" : 732}
        },
         { "type" : "Feature",
        "id" : 192,
            "geometry" : {
                "type" : "Point",
                "coordinates" : [103.8412359,1.376278364]},
        "properties" : { "name" : "154 Ang Mo Kio Avenue 5","price" : 320000,"sqft" : 721}
        },
         { "type" : "Feature",
        "id" : 193,
            "geometry" : {
                "type" : "Point",
                "coordinates" : [103.7409071,1.346602003]},
        "properties" : { "name" : "169 Bukit Batok West Avenue 8","price" : 320000,"sqft" : 796}
        },
         { "type" : "Feature",
        "id" : 194,
            "geometry" : {
                "type" : "Point",
                "coordinates" : [103.7409071,1.346602003]},
        "properties" : { "name" : "169 Bukit Batok West Avenue 8","price" : 320000,"sqft" : 785}
        },
         { "type" : "Feature",
        "id" : 195,
            "geometry" : {
                "type" : "Point",
                "coordinates" : [103.9043584,1.323745713]},
        "properties" : { "name" : "18 Eunos Crescent","price" : 320000,"sqft" : 753}
        },
         { "type" : "Feature",
        "id" : 196,
            "geometry" : {
                "type" : "Point",
                "coordinates" : [103.8364668,1.377346416]},
        "properties" : { "name" : "182 Ang Mo Kio Avenue 5","price" : 320000,"sqft" : 731}
        },
         { "type" : "Feature",
        "id" : 197,
            "geometry" : {
                "type" : "Point",
                "coordinates" : [103.8632618,1.322418407]},
        "properties" : { "name" : "2 Saint George's Road","price" : 320000,"sqft" : 59}
        },
         { "type" : "Feature",
        "id" : 198,
            "geometry" : {
                "type" : "Point",
                "coordinates" : [103.8358161,1.434823584]},
        "properties" : { "name" : "225 Yishun Street 21","price" : 320000,"sqft" : 721}
        },
         { "type" : "Feature",
        "id" : 199,
            "geometry" : {
                "type" : "Point",
                "coordinates" : [103.836689,1.435117386]},
        "properties" : { "name" : "227 Yishun Street 21","price" : 320000,"sqft" : 721}
        },
         { "type" : "Feature",
        "id" : 200,
            "geometry" : {
                "type" : "Point",
                "coordinates" : [103.8584567,1.338282205]},
        "properties" : { "name" : "233 Lorong 8 Toa Payoh","price" : 320000,"sqft" : 699}
        },
         { "type" : "Feature",
        "id" : 201,
            "geometry" : {
                "type" : "Point",
                "coordinates" : [103.8579346,1.338588694]},
        "properties" : { "name" : "234 Lorong 8 Toa Payoh","price" : 320000,"sqft" : 703}
        },
         { "type" : "Feature",
        "id" : 202,
            "geometry" : {
                "type" : "Point",
                "coordinates" : [103.857163,1.338939089]},
        "properties" : { "name" : "235 Lorong 8 Toa Payoh","price" : 320000,"sqft" : 699}
        },
         { "type" : "Feature",
        "id" : 203,
            "geometry" : {
                "type" : "Point",
                "coordinates" : [103.7401432,1.342305768]},
        "properties" : { "name" : "248 Jurong East Street 24","price" : 320000,"sqft" : 721}
        },
         { "type" : "Feature",
        "id" : 204,
            "geometry" : {
                "type" : "Point",
                "coordinates" : [103.738263,1.344164606]},
        "properties" : { "name" : "256 Jurong East Street 24","price" : 320000,"sqft" : 689}
        },
         { "type" : "Feature",
        "id" : 205,
            "geometry" : {
                "type" : "Point",
                "coordinates" : [103.7404007,1.344495022]},
        "properties" : { "name" : "261 Jurong East Street 24","price" : 320000,"sqft" : 67}
        },
         { "type" : "Feature",
        "id" : 206,
            "geometry" : {
                "type" : "Point",
                "coordinates" : [103.8948474,1.365669279]},
        "properties" : { "name" : "311 Hougang Avenue 5","price" : 320000,"sqft" : 721}
        },
         { "type" : "Feature",
        "id" : 207,
            "geometry" : {
                "type" : "Point",
                "coordinates" : [103.747551,1.360240817]},
        "properties" : { "name" : "313 Bukit Batok Street 32","price" : 320000,"sqft" : 731}
        },
         { "type" : "Feature",
        "id" : 208,
            "geometry" : {
                "type" : "Point",
                "coordinates" : [103.8216639,1.273129809]},
        "properties" : { "name" : "32 Telok Blangah Rise","price" : 320000,"sqft" : 635}
        },
         { "type" : "Feature",
        "id" : 209,
            "geometry" : {
                "type" : "Point",
                "coordinates" : [103.7491682,1.362417578]},
        "properties" : { "name" : "343 Bukit Batok Street 34","price" : 320000,"sqft" : 785}
        },
         { "type" : "Feature",
        "id" : 210,
            "geometry" : {
                "type" : "Point",
                "coordinates" : [103.8452297,1.425786907]},
        "properties" : { "name" : "354 Yishun Ring Road","price" : 320000,"sqft" : 796}
        },
         { "type" : "Feature",
        "id" : 211,
            "geometry" : {
                "type" : "Point",
                "coordinates" : [103.749321,1.360667557]},
        "properties" : { "name" : "364 Bukit Batok Street 31","price" : 320000,"sqft" : 742}
        },
         { "type" : "Feature",
        "id" : 212,
            "geometry" : {
                "type" : "Point",
                "coordinates" : [103.7617634,1.31165483]},
        "properties" : { "name" : "508 West Coast Drive","price" : 320000,"sqft" : 731}
        },
         { "type" : "Feature",
        "id" : 213,
            "geometry" : {
                "type" : "Point",
                "coordinates" : [103.7617634,1.31165483]},
        "properties" : { "name" : "508 West Coast Drive","price" : 320000,"sqft" : 732}
        },
         { "type" : "Feature",
        "id" : 214,
            "geometry" : {
                "type" : "Point",
                "coordinates" : [103.7596259,1.307150056]},
        "properties" : { "name" : "520 West Coast Road","price" : 320000,"sqft" : 721}
        },
         { "type" : "Feature",
        "id" : 215,
            "geometry" : {
                "type" : "Point",
                "coordinates" : [103.9228531,1.330689056]},
        "properties" : { "name" : "542 Bedok North Street 3","price" : 320000,"sqft" : 721}
        },
         { "type" : "Feature",
        "id" : 216,
            "geometry" : {
                "type" : "Point",
                "coordinates" : [103.7970706,1.297528702]},
        "properties" : { "name" : "56 Commonwealth Drive","price" : 320000,"sqft" : 780}
        },
         { "type" : "Feature",
        "id" : 217,
            "geometry" : {
                "type" : "Point",
                "coordinates" : [103.7970706,1.297528702]},
        "properties" : { "name" : "56 Commonwealth Drive","price" : 320000,"sqft" : 645}
        },
         { "type" : "Feature",
        "id" : 218,
            "geometry" : {
                "type" : "Point",
                "coordinates" : [103.8815147,1.370687549]},
        "properties" : { "name" : "631 Hougang Avenue 8","price" : 320000,"sqft" : 60}
        },
         { "type" : "Feature",
        "id" : 219,
            "geometry" : {
                "type" : "Point",
                "coordinates" : [103.9189138,1.337639552]},
        "properties" : { "name" : "701 Bedok Reservoir Road","price" : 320000,"sqft" : 731}
        },
         { "type" : "Feature",
        "id" : 220,
            "geometry" : {
                "type" : "Point",
                "coordinates" : [103.8577692,1.32470521]},
        "properties" : { "name" : "74 Whampoa Drive","price" : 320000,"sqft" : 680}
        },
         { "type" : "Feature",
        "id" : 221,
            "geometry" : {
                "type" : "Point",
                "coordinates" : [103.9337216,1.349715862]},
        "properties" : { "name" : "827 Tampines Street 81","price" : 320000,"sqft" : 721}
        },
         { "type" : "Feature",
        "id" : 222,
            "geometry" : {
                "type" : "Point",
                "coordinates" : [103.8004232,1.304688081]},
        "properties" : { "name" : "83 Commonwealth Close","price" : 320000,"sqft" : 645}
        },
         { "type" : "Feature",
        "id" : 223,
            "geometry" : {
                "type" : "Point",
                "coordinates" : [103.6878419,1.340343467]},
        "properties" : { "name" : "917 Jurong West Street 91","price" : 320000,"sqft" : 785}
        },
         { "type" : "Feature",
        "id" : 224,
            "geometry" : {
                "type" : "Point",
                "coordinates" : [103.7665182,1.304350718]},
        "properties" : { "name" : "608 Clementi West Street 1","price" : 320000,"sqft" : 721}
        },
         { "type" : "Feature",
        "id" : 225,
            "geometry" : {
                "type" : "Point",
                "coordinates" : [103.7422669,1.34693442]},
        "properties" : { "name" : "167 Bukit Batok West Avenue 8","price" : 322000,"sqft" : 785}
        },
         { "type" : "Feature",
        "id" : 226,
            "geometry" : {
                "type" : "Point",
                "coordinates" : [103.7474994,1.361656313]},
        "properties" : { "name" : "322 Bukit Batok Street 33","price" : 322000,"sqft" : 720}
        },
         { "type" : "Feature",
        "id" : 227,
            "geometry" : {
                "type" : "Point",
                "coordinates" : [103.7983868,1.296567611]},
        "properties" : { "name" : "33 Tanglin Halt Road","price" : 322000,"sqft" : 602}
        },
         { "type" : "Feature",
        "id" : 228,
            "geometry" : {
                "type" : "Point",
                "coordinates" : [103.7549826,1.351962225]},
        "properties" : { "name" : "504 Bukit Batok Street 52","price" : 322000,"sqft" : 742}
        },
         { "type" : "Feature",
        "id" : 229,
            "geometry" : {
                "type" : "Point",
                "coordinates" : [103.7549826,1.351962225]},
        "properties" : { "name" : "504 Bukit Batok Street 52","price" : 322000,"sqft" : 785}
        },
         { "type" : "Feature",
        "id" : 230,
            "geometry" : {
                "type" : "Point",
                "coordinates" : [103.9265517,1.334256779]},
        "properties" : { "name" : "529 Bedok North Street 3","price" : 322000,"sqft" : 731}
        },
         { "type" : "Feature",
        "id" : 231,
            "geometry" : {
                "type" : "Point",
                "coordinates" : [103.9202632,1.324882103]},
        "properties" : { "name" : "59 Chai Chee Road","price" : 322000,"sqft" : 850}
        },
         { "type" : "Feature",
        "id" : 232,
            "geometry" : {
                "type" : "Point",
                "coordinates" : [103.7638335,1.30519284]},
        "properties" : { "name" : "728 Clementi West Street 2","price" : 322000,"sqft" : 721}
        },
         { "type" : "Feature",
        "id" : 233,
            "geometry" : {
                "type" : "Point",
                "coordinates" : [103.8007386,1.305579584]},
        "properties" : { "name" : "94 Commonwealth Drive","price" : 322000,"sqft" : 645}
        },
         { "type" : "Feature",
        "id" : 234,
            "geometry" : {
                "type" : "Point",
                "coordinates" : [103.8007386,1.305579584]},
        "properties" : { "name" : "94 Commonwealth Drive","price" : 322000,"sqft" : 60}
        },
         { "type" : "Feature",
        "id" : 235,
            "geometry" : {
                "type" : "Point",
                "coordinates" : [103.8577684,1.33677453]},
        "properties" : { "name" : "12 Lorong 7 Toa Payoh","price" : 323000,"sqft" : 710}
        },
         { "type" : "Feature",
        "id" : 236,
            "geometry" : {
                "type" : "Point",
                "coordinates" : [103.7447937,1.351254708]},
        "properties" : { "name" : "135 Bukit Batok West Avenue 6","price" : 323000,"sqft" : 731}
        },
         { "type" : "Feature",
        "id" : 237,
            "geometry" : {
                "type" : "Point",
                "coordinates" : [103.7447937,1.351254708]},
        "properties" : { "name" : "135 Bukit Batok West Avenue 6","price" : 323000,"sqft" : 721}
        },
         { "type" : "Feature",
        "id" : 238,
            "geometry" : {
                "type" : "Point",
                "coordinates" : [103.8393857,1.37526868]},
        "properties" : { "name" : "157 Ang Mo Kio Avenue 4","price" : 323000,"sqft" : 742}
        },
         { "type" : "Feature",
        "id" : 239,
            "geometry" : {
                "type" : "Point",
                "coordinates" : [103.8578785,1.362393295]},
        "properties" : { "name" : "476 Ang Mo Kio Avenue 10","price" : 323000,"sqft" : 731}
        },
         { "type" : "Feature",
        "id" : 240,
            "geometry" : {
                "type" : "Point",
                "coordinates" : [103.9265517,1.334256779]},
        "properties" : { "name" : "529 Bedok North Street 3","price" : 323000,"sqft" : 732}
        },
         { "type" : "Feature",
        "id" : 241,
            "geometry" : {
                "type" : "Point",
                "coordinates" : [103.9265517,1.334256779]},
        "properties" : { "name" : "529 Bedok North Street 3","price" : 323000,"sqft" : 737}
        },
         { "type" : "Feature",
        "id" : 242,
            "geometry" : {
                "type" : "Point",
                "coordinates" : [103.8611083,1.322597932]},
        "properties" : { "name" : "3 Saint George's Road","price" : 323000,"sqft" : 635}
        },
         { "type" : "Feature",
        "id" : 243,
            "geometry" : {
                "type" : "Point",
                "coordinates" : [103.8534425,1.339404432]},
        "properties" : { "name" : "1 Lorong 7 Toa Payoh","price" : 325000,"sqft" : 721}
        },
         { "type" : "Feature",
        "id" : 244,
            "geometry" : {
                "type" : "Point",
                "coordinates" : [103.9097742,1.329859002]},
        "properties" : { "name" : "109 Bedok Reservoir Road","price" : 325000,"sqft" : 721}
        },
         { "type" : "Feature",
        "id" : 245,
            "geometry" : {
                "type" : "Point",
                "coordinates" : [103.8333411,1.432414405]},
        "properties" : { "name" : "160 Yishun Street 11","price" : 325000,"sqft" : 721}
        },
         { "type" : "Feature",
        "id" : 246,
            "geometry" : {
                "type" : "Point",
                "coordinates" : [103.8370467,1.376203485]},
        "properties" : { "name" : "178 Ang Mo Kio Avenue 4","price" : 325000,"sqft" : 732}
        },
         { "type" : "Feature",
        "id" : 247,
            "geometry" : {
                "type" : "Point",
                "coordinates" : [103.8370467,1.376203485]},
        "properties" : { "name" : "178 Ang Mo Kio Avenue 4","price" : 325000,"sqft" : 731}
        },
         { "type" : "Feature",
        "id" : 248,
            "geometry" : {
                "type" : "Point",
                "coordinates" : [103.9222191,1.327250283]},
        "properties" : { "name" : "19 Chai Chee Road","price" : 325000,"sqft" : 700}
        },
         { "type" : "Feature",
        "id" : 249,
            "geometry" : {
                "type" : "Point",
                "coordinates" : [103.9222191,1.327250283]},
        "properties" : { "name" : "19 Chai Chee Road","price" : 325000,"sqft" : 699}
        },
         { "type" : "Feature",
        "id" : 250,
            "geometry" : {
                "type" : "Point",
                "coordinates" : [103.9222191,1.327250283]},
        "properties" : { "name" : "19 Chai Chee Road","price" : 325000,"sqft" : 721}
        },
         { "type" : "Feature",
        "id" : 251,
            "geometry" : {
                "type" : "Point",
                "coordinates" : [103.8632618,1.322418407]},
        "properties" : { "name" : "2 Saint George's Road","price" : 325000,"sqft" : 59}
        },
         { "type" : "Feature",
        "id" : 252,
            "geometry" : {
                "type" : "Point",
                "coordinates" : [103.7129647,1.347639741]},
        "properties" : { "name" : "210 Boon Lay Place","price" : 325000,"sqft" : 74}
        },
         { "type" : "Feature",
        "id" : 253,
            "geometry" : {
                "type" : "Point",
                "coordinates" : [103.8379233,1.434366487]},
        "properties" : { "name" : "234 Yishun Street 21","price" : 325000,"sqft" : 722}
        },
         { "type" : "Feature",
        "id" : 254,
            "geometry" : {
                "type" : "Point",
                "coordinates" : [103.8379233,1.434366487]},
        "properties" : { "name" : "234 Yishun Street 21","price" : 325000,"sqft" : 721}
        },
         { "type" : "Feature",
        "id" : 255,
            "geometry" : {
                "type" : "Point",
                "coordinates" : [103.857163,1.338939089]},
        "properties" : { "name" : "235 Lorong 8 Toa Payoh","price" : 325000,"sqft" : 699}
        },
         { "type" : "Feature",
        "id" : 256,
            "geometry" : {
                "type" : "Point",
                "coordinates" : [103.8385424,1.434252241]},
        "properties" : { "name" : "235 Yishun Street 21","price" : 325000,"sqft" : 721}
        },
         { "type" : "Feature",
        "id" : 257,
            "geometry" : {
                "type" : "Point",
                "coordinates" : [103.7551047,1.350238692]},
        "properties" : { "name" : "239 Bukit Batok East Avenue 5","price" : 325000,"sqft" : 721}
        },
         { "type" : "Feature",
        "id" : 258,
            "geometry" : {
                "type" : "Point",
                "coordinates" : [103.7996358,1.297673054]},
        "properties" : { "name" : "24 Tanglin Halt Road","price" : 325000,"sqft" : 624}
        },
         { "type" : "Feature",
        "id" : 259,
            "geometry" : {
                "type" : "Point",
                "coordinates" : [103.7404007,1.344495022]},
        "properties" : { "name" : "261 Jurong East Street 24","price" : 325000,"sqft" : 731}
        },
         { "type" : "Feature",
        "id" : 260,
            "geometry" : {
                "type" : "Point",
                "coordinates" : [103.7590381,1.349911878]},
        "properties" : { "name" : "264 Bukit Batok East Avenue 4","price" : 325000,"sqft" : 785}
        },
         { "type" : "Feature",
        "id" : 261,
            "geometry" : {
                "type" : "Point",
                "coordinates" : [103.8387408,1.440039688]},
        "properties" : { "name" : "286 Yishun Avenue 6","price" : 325000,"sqft" : 796}
        },
         { "type" : "Feature",
        "id" : 262,
            "geometry" : {
                "type" : "Point",
                "coordinates" : [103.7525318,1.382478142]},
        "properties" : { "name" : "3 Teck Whye Avenue","price" : 325000,"sqft" : 797}
        },
         { "type" : "Feature",
        "id" : 263,
            "geometry" : {
                "type" : "Point",
                "coordinates" : [103.7347497,1.345129142]},
        "properties" : { "name" : "304 Jurong East Street 32","price" : 325000,"sqft" : 68}
        },
         { "type" : "Feature",
        "id" : 264,
            "geometry" : {
                "type" : "Point",
                "coordinates" : [103.7347497,1.345129142]},
        "properties" : { "name" : "304 Jurong East Street 32","price" : 325000,"sqft" : 721}
        },
         { "type" : "Feature",
        "id" : 265,
            "geometry" : {
                "type" : "Point",
                "coordinates" : [103.8216639,1.273129809]},
        "properties" : { "name" : "32 Telok Blangah Rise","price" : 325000,"sqft" : 635}
        },
         { "type" : "Feature",
        "id" : 266,
            "geometry" : {
                "type" : "Point",
                "coordinates" : [103.7505587,1.362476802]},
        "properties" : { "name" : "346 Bukit Batok Street 34","price" : 325000,"sqft" : 742}
        },
         { "type" : "Feature",
        "id" : 267,
            "geometry" : {
                "type" : "Point",
                "coordinates" : [103.7227313,1.348806881]},
        "properties" : { "name" : "473 Jurong West Street 41","price" : 325000,"sqft" : 721}
        },
         { "type" : "Feature",
        "id" : 268,
            "geometry" : {
                "type" : "Point",
                "coordinates" : [103.9276297,1.334568956]},
        "properties" : { "name" : "528 Bedok North Street 3","price" : 325000,"sqft" : 721}
        },
         { "type" : "Feature",
        "id" : 269,
            "geometry" : {
                "type" : "Point",
                "coordinates" : [103.9276297,1.334568956]},
        "properties" : { "name" : "528 Bedok North Street 3","price" : 325000,"sqft" : 731}
        },
         { "type" : "Feature",
        "id" : 270,
            "geometry" : {
                "type" : "Point",
                "coordinates" : [103.9270208,1.333717285]},
        "properties" : { "name" : "530 Bedok North Street 3","price" : 325000,"sqft" : 731}
        },
         { "type" : "Feature",
        "id" : 271,
            "geometry" : {
                "type" : "Point",
                "coordinates" : [103.9242234,1.333577879]},
        "properties" : { "name" : "533 Bedok North Street 3","price" : 325000,"sqft" : 699}
        },
         { "type" : "Feature",
        "id" : 272,
            "geometry" : {
                "type" : "Point",
                "coordinates" : [103.9242234,1.333577879]},
        "properties" : { "name" : "533 Bedok North Street 3","price" : 325000,"sqft" : 732}
        },
         { "type" : "Feature",
        "id" : 273,
            "geometry" : {
                "type" : "Point",
                "coordinates" : [103.9229782,1.333206625]},
        "properties" : { "name" : "536 Bedok North Street 3","price" : 325000,"sqft" : 720}
        },
         { "type" : "Feature",
        "id" : 274,
            "geometry" : {
                "type" : "Point",
                "coordinates" : [103.9229782,1.333206625]},
        "properties" : { "name" : "536 Bedok North Street 3","price" : 325000,"sqft" : 732}
        },
         { "type" : "Feature",
        "id" : 275,
            "geometry" : {
                "type" : "Point",
                "coordinates" : [103.9229782,1.333206625]},
        "properties" : { "name" : "536 Bedok North Street 3","price" : 325000,"sqft" : 721}
        },
         { "type" : "Feature",
        "id" : 276,
            "geometry" : {
                "type" : "Point",
                "coordinates" : [103.9229782,1.333206625]},
        "properties" : { "name" : "536 Bedok North Street 3","price" : 325000,"sqft" : 731}
        },
         { "type" : "Feature",
        "id" : 277,
            "geometry" : {
                "type" : "Point",
                "coordinates" : [103.9242367,1.331751429]},
        "properties" : { "name" : "537 Bedok North Street 3","price" : 325000,"sqft" : 731}
        },
         { "type" : "Feature",
        "id" : 278,
            "geometry" : {
                "type" : "Point",
                "coordinates" : [103.9221114,1.331153363]},
        "properties" : { "name" : "540 Bedok North Street 3","price" : 325000,"sqft" : 721}
        },
         { "type" : "Feature",
        "id" : 279,
            "geometry" : {
                "type" : "Point",
                "coordinates" : [103.9269151,1.331730254]},
        "properties" : { "name" : "549 Bedok North Avenue 1","price" : 325000,"sqft" : 721}
        },
         { "type" : "Feature",
        "id" : 280,
            "geometry" : {
                "type" : "Point",
                "coordinates" : [103.9415716,1.324251346]},
        "properties" : { "name" : "57 New Upper Changi Road","price" : 325000,"sqft" : 645}
        },
         { "type" : "Feature",
        "id" : 281,
            "geometry" : {
                "type" : "Point",
                "coordinates" : [103.8683405,1.320368181]},
        "properties" : { "name" : "64 Kallang Bahru","price" : 325000,"sqft" : 699}
        },
         { "type" : "Feature",
        "id" : 282,
            "geometry" : {
                "type" : "Point",
                "coordinates" : [103.8815998,1.372405517]},
        "properties" : { "name" : "652 Hougang Avenue 8","price" : 325000,"sqft" : 646}
        },
         { "type" : "Feature",
        "id" : 283,
            "geometry" : {
                "type" : "Point",
                "coordinates" : [103.8288815,1.429230825]},
        "properties" : { "name" : "704 Yishun Avenue 5","price" : 325000,"sqft" : 731}
        },
         { "type" : "Feature",
        "id" : 284,
            "geometry" : {
                "type" : "Point",
                "coordinates" : [103.76065,1.305668526]},
        "properties" : { "name" : "705 Clementi West Street 2","price" : 325000,"sqft" : 731}
        },
         { "type" : "Feature",
        "id" : 285,
            "geometry" : {
                "type" : "Point",
                "coordinates" : [103.8277378,1.428572795]},
        "properties" : { "name" : "709 Yishun Avenue 5","price" : 325000,"sqft" : 732}
        },
         { "type" : "Feature",
        "id" : 286,
            "geometry" : {
                "type" : "Point",
                "coordinates" : [103.8303377,1.42903117]},
        "properties" : { "name" : "732 Yishun Avenue 5","price" : 325000,"sqft" : 721}
        },
         { "type" : "Feature",
        "id" : 287,
            "geometry" : {
                "type" : "Point",
                "coordinates" : [103.831065,1.429264962]},
        "properties" : { "name" : "734 Yishun Avenue 5","price" : 325000,"sqft" : 721}
        },
         { "type" : "Feature",
        "id" : 288,
            "geometry" : {
                "type" : "Point",
                "coordinates" : [103.9422179,1.327522408]},
        "properties" : { "name" : "74 Bedok North Road","price" : 325000,"sqft" : 635}
        },
         { "type" : "Feature",
        "id" : 289,
            "geometry" : {
                "type" : "Point",
                "coordinates" : [103.801066,1.305395821]},
        "properties" : { "name" : "95 Commonwealth Drive","price" : 325000,"sqft" : 645}
        },
         { "type" : "Feature",
        "id" : 290,
            "geometry" : {
                "type" : "Point",
                "coordinates" : [103.7438599,1.349283015]},
        "properties" : { "name" : "148 Bukit Batok West Avenue 6","price" : 325000,"sqft" : 731}
        },
         { "type" : "Feature",
        "id" : 291,
            "geometry" : {
                "type" : "Point",
                "coordinates" : [103.7746269,1.429929241]},
        "properties" : { "name" : "306 Woodlands Street 31","price" : 325000,"sqft" : 689}
        },
         { "type" : "Feature",
        "id" : 292,
            "geometry" : {
                "type" : "Point",
                "coordinates" : [103.9379479,1.327972785]},
        "properties" : { "name" : "127 Bedok North Street 2","price" : 326000,"sqft" : 67}
        },
         { "type" : "Feature",
        "id" : 293,
            "geometry" : {
                "type" : "Point",
                "coordinates" : [103.8857586,1.37361521]},
        "properties" : { "name" : "682 Hougang Avenue 4","price" : 326000,"sqft" : 688}
        },
         { "type" : "Feature",
        "id" : 294,
            "geometry" : {
                "type" : "Point",
                "coordinates" : [103.7741114,1.373730909]},
        "properties" : { "name" : "206 Petir Road","price" : 327000,"sqft" : 678}
        },
         { "type" : "Feature",
        "id" : 295,
            "geometry" : {
                "type" : "Point",
                "coordinates" : [103.738426,1.340455988]},
        "properties" : { "name" : "217A Jurong East Street 21","price" : 327000,"sqft" : 721}
        },
         { "type" : "Feature",
        "id" : 296,
            "geometry" : {
                "type" : "Point",
                "coordinates" : [103.7572374,1.349180572]},
        "properties" : { "name" : "244 Bukit Batok East Avenue 5","price" : 327000,"sqft" : 721}
        },
         { "type" : "Feature",
        "id" : 297,
            "geometry" : {
                "type" : "Point",
                "coordinates" : [103.7184438,1.352346932]},
        "properties" : { "name" : "449 Jurong West Street 42","price" : 327000,"sqft" : 796}
        },
         { "type" : "Feature",
        "id" : 298,
            "geometry" : {
                "type" : "Point",
                "coordinates" : [103.7200113,1.350671395]},
        "properties" : { "name" : "456 Jurong West Street 41","price" : 327000,"sqft" : 721}
        },
         { "type" : "Feature",
        "id" : 299,
            "geometry" : {
                "type" : "Point",
                "coordinates" : [103.9228531,1.330689056]},
        "properties" : { "name" : "542 Bedok North Street 3","price" : 327000,"sqft" : 721}
        },
         { "type" : "Feature",
        "id" : 300,
            "geometry" : {
                "type" : "Point",
                "coordinates" : [103.9228531,1.330689056]},
        "properties" : { "name" : "542 Bedok North Street 3","price" : 327000,"sqft" : 68}
        },
         { "type" : "Feature",
        "id" : 301,
            "geometry" : {
                "type" : "Point",
                "coordinates" : [103.8364885,1.379668898]},
        "properties" : { "name" : "605 Ang Mo Kio Avenue 5","price" : 327000,"sqft" : 721}
        },
         { "type" : "Feature",
        "id" : 302,
            "geometry" : {
                "type" : "Point",
                "coordinates" : [103.8288575,1.429586646]},
        "properties" : { "name" : "703 Yishun Avenue 5","price" : 327000,"sqft" : 731}
        },
         { "type" : "Feature",
        "id" : 303,
            "geometry" : {
                "type" : "Point",
                "coordinates" : [103.9221114,1.331153363]},
        "properties" : { "name" : "540 Bedok North Street 3","price" : 327000,"sqft" : 731}
        },
         { "type" : "Feature",
        "id" : 304,
            "geometry" : {
                "type" : "Point",
                "coordinates" : [103.781202,1.436089122]},
        "properties" : { "name" : "102 Woodlands Street 13","price" : 328000,"sqft" : 721}
        },
         { "type" : "Feature",
        "id" : 305,
            "geometry" : {
                "type" : "Point",
                "coordinates" : [103.781202,1.436089122]},
        "properties" : { "name" : "102 Woodlands Street 13","price" : 328000,"sqft" : 67}
        },
         { "type" : "Feature",
        "id" : 306,
            "geometry" : {
                "type" : "Point",
                "coordinates" : [103.781202,1.436089122]},
        "properties" : { "name" : "102 Woodlands Street 13","price" : 328000,"sqft" : 657}
        },
         { "type" : "Feature",
        "id" : 307,
            "geometry" : {
                "type" : "Point",
                "coordinates" : [103.7989361,1.307253578]},
        "properties" : { "name" : "109 Commonwealth Crescent","price" : 328000,"sqft" : 645}
        },
         { "type" : "Feature",
        "id" : 308,
            "geometry" : {
                "type" : "Point",
                "coordinates" : [103.7989361,1.307253578]},
        "properties" : { "name" : "109 Commonwealth Crescent","price" : 328000,"sqft" : 60}
        },
         { "type" : "Feature",
        "id" : 309,
            "geometry" : {
                "type" : "Point",
                "coordinates" : [103.7989361,1.307253578]},
        "properties" : { "name" : "109 Commonwealth Crescent","price" : 328000,"sqft" : 67}
        },
         { "type" : "Feature",
        "id" : 310,
            "geometry" : {
                "type" : "Point",
                "coordinates" : [103.8393857,1.37526868]},
        "properties" : { "name" : "157 Ang Mo Kio Avenue 4","price" : 328000,"sqft" : 743}
        },
         { "type" : "Feature",
        "id" : 311,
            "geometry" : {
                "type" : "Point",
                "coordinates" : [103.922267,1.325799416]},
        "properties" : { "name" : "21 Chai Chee Road","price" : 328000,"sqft" : 700}
        },
         { "type" : "Feature",
        "id" : 312,
            "geometry" : {
                "type" : "Point",
                "coordinates" : [103.7728821,1.374495834]},
        "properties" : { "name" : "220 Petir Road","price" : 328000,"sqft" : 796}
        },
         { "type" : "Feature",
        "id" : 313,
            "geometry" : {
                "type" : "Point",
                "coordinates" : [103.7728821,1.374495834]},
        "properties" : { "name" : "220 Petir Road","price" : 328000,"sqft" : 786}
        },
         { "type" : "Feature",
        "id" : 314,
            "geometry" : {
                "type" : "Point",
                "coordinates" : [103.8224994,1.274127419]},
        "properties" : { "name" : "33 Telok Blangah Way","price" : 328000,"sqft" : 635}
        },
         { "type" : "Feature",
        "id" : 315,
            "geometry" : {
                "type" : "Point",
                "coordinates" : [103.749321,1.360667557]},
        "properties" : { "name" : "364 Bukit Batok Street 31","price" : 328000,"sqft" : 721}
        },
         { "type" : "Feature",
        "id" : 316,
            "geometry" : {
                "type" : "Point",
                "coordinates" : [103.9244967,1.328618909]},
        "properties" : { "name" : "45 Chai Chee Street","price" : 328000,"sqft" : 731}
        },
         { "type" : "Feature",
        "id" : 317,
            "geometry" : {
                "type" : "Point",
                "coordinates" : [103.9244967,1.328618909]},
        "properties" : { "name" : "45 Chai Chee Street","price" : 328000,"sqft" : 721}
        },
         { "type" : "Feature",
        "id" : 318,
            "geometry" : {
                "type" : "Point",
                "coordinates" : [103.9244967,1.328618909]},
        "properties" : { "name" : "45 Chai Chee Street","price" : 328000,"sqft" : 68}
        },
         { "type" : "Feature",
        "id" : 319,
            "geometry" : {
                "type" : "Point",
                "coordinates" : [103.7608042,1.310826414]},
        "properties" : { "name" : "510 West Coast Drive","price" : 328000,"sqft" : 721}
        },
         { "type" : "Feature",
        "id" : 320,
            "geometry" : {
                "type" : "Point",
                "coordinates" : [103.759353,1.307696029]},
        "properties" : { "name" : "519 West Coast Road","price" : 328000,"sqft" : 721}
        },
         { "type" : "Feature",
        "id" : 321,
            "geometry" : {
                "type" : "Point",
                "coordinates" : [103.8837735,1.370185708]},
        "properties" : { "name" : "620 Hougang Avenue 8","price" : 328000,"sqft" : 645}
        },
         { "type" : "Feature",
        "id" : 322,
            "geometry" : {
                "type" : "Point",
                "coordinates" : [103.881261,1.371439724]},
        "properties" : { "name" : "644 Hougang Avenue 8","price" : 328000,"sqft" : 646}
        },
         { "type" : "Feature",
        "id" : 323,
            "geometry" : {
                "type" : "Point",
                "coordinates" : [103.7610274,1.305056556]},
        "properties" : { "name" : "711 Clementi West Street 2","price" : 328000,"sqft" : 721}
        },
         { "type" : "Feature",
        "id" : 324,
            "geometry" : {
                "type" : "Point",
                "coordinates" : [103.9032831,1.325021281]},
        "properties" : { "name" : "21 Eunos Crescent","price" : 330000,"sqft" : 807}
        },
         { "type" : "Feature",
        "id" : 325,
            "geometry" : {
                "type" : "Point",
                "coordinates" : [103.8534425,1.339404432]},
        "properties" : { "name" : "1 Lorong 7 Toa Payoh","price" : 330000,"sqft" : 710}
        },
         { "type" : "Feature",
        "id" : 326,
            "geometry" : {
                "type" : "Point",
                "coordinates" : [103.9362235,1.332734374]},
        "properties" : { "name" : "108 Bedok North Road","price" : 330000,"sqft" : 721}
        },
         { "type" : "Feature",
        "id" : 327,
            "geometry" : {
                "type" : "Point",
                "coordinates" : [103.9362235,1.332734374]},
        "properties" : { "name" : "108 Bedok North","price" : 330000,"sqft" : 721}
        },
         { "type" : "Feature",
        "id" : 328,
            "geometry" : {
                "type" : "Point",
                "coordinates" : [103.8401583,1.376682332]},
        "properties" : { "name" : "152 Ang Mo Kio Avenue 5","price" : 330000,"sqft" : 721}
        },
         { "type" : "Feature",
        "id" : 329,
            "geometry" : {
                "type" : "Point",
                "coordinates" : [103.9228727,1.326263141]},
        "properties" : { "name" : "20 Chai Chee Road","price" : 330000,"sqft" : 699}
        },
         { "type" : "Feature",
        "id" : 330,
            "geometry" : {
                "type" : "Point",
                "coordinates" : [103.8477273,1.342208824]},
        "properties" : { "name" : "205 Toa Payoh North","price" : 330000,"sqft" : 699}
        },
         { "type" : "Feature",
        "id" : 331,
            "geometry" : {
                "type" : "Point",
                "coordinates" : [103.738426,1.340455988]},
        "properties" : { "name" : "217A Jurong East Street 21","price" : 330000,"sqft" : 721}
        },
         { "type" : "Feature",
        "id" : 332,
            "geometry" : {
                "type" : "Point",
                "coordinates" : [103.8571853,1.334573807]},
        "properties" : { "name" : "23 Toa Payoh East","price" : 330000,"sqft" : 721}
        },
         { "type" : "Feature",
        "id" : 333,
            "geometry" : {
                "type" : "Point",
                "coordinates" : [103.7996358,1.297673054]},
        "properties" : { "name" : "24 Tanglin Halt Road","price" : 330000,"sqft" : 602}
        },
         { "type" : "Feature",
        "id" : 334,
            "geometry" : {
                "type" : "Point",
                "coordinates" : [103.7541777,1.350487526]},
        "properties" : { "name" : "240 Bukit Batok East Avenue 5","price" : 330000,"sqft" : 721}
        },
         { "type" : "Feature",
        "id" : 335,
            "geometry" : {
                "type" : "Point",
                "coordinates" : [103.7572374,1.349180572]},
        "properties" : { "name" : "244 Bukit Batok East Avenue 5","price" : 330000,"sqft" : 721}
        },
         { "type" : "Feature",
        "id" : 336,
            "geometry" : {
                "type" : "Point",
                "coordinates" : [103.8569809,1.333548253]},
        "properties" : { "name" : "25 Toa Payoh East","price" : 330000,"sqft" : 721}
        },
         { "type" : "Feature",
        "id" : 337,
            "geometry" : {
                "type" : "Point",
                "coordinates" : [103.7404007,1.344495022]},
        "properties" : { "name" : "261 Jurong East Street 24","price" : 330000,"sqft" : 721}
        },
         { "type" : "Feature",
        "id" : 338,
            "geometry" : {
                "type" : "Point",
                "coordinates" : [103.8388098,1.437377729]},
        "properties" : { "name" : "274 Yishun Street 22","price" : 330000,"sqft" : 800}
        },
         { "type" : "Feature",
        "id" : 339,
            "geometry" : {
                "type" : "Point",
                "coordinates" : [103.747551,1.360240817]},
        "properties" : { "name" : "313 Bukit Batok Street 32","price" : 330000,"sqft" : 731}
        },
         { "type" : "Feature",
        "id" : 340,
            "geometry" : {
                "type" : "Point",
                "coordinates" : [103.8182825,1.276854767]},
        "properties" : { "name" : "Telok Blangah Way","price" : 330000,"sqft" : 635}
        },
         { "type" : "Feature",
        "id" : 341,
            "geometry" : {
                "type" : "Point",
                "coordinates" : [103.798387,1.296808836]},
        "properties" : { "name" : "34 Tanglin Halt Road","price" : 330000,"sqft" : 602}
        },
         { "type" : "Feature",
        "id" : 342,
            "geometry" : {
                "type" : "Point",
                "coordinates" : [103.7495389,1.363143769]},
        "properties" : { "name" : "340 Bukit Batok Street 34","price" : 330000,"sqft" : 785}
        },
         { "type" : "Feature",
        "id" : 343,
            "geometry" : {
                "type" : "Point",
                "coordinates" : [103.7491682,1.362417578]},
        "properties" : { "name" : "343 Bukit Batok Street 34","price" : 330000,"sqft" : 786}
        },
         { "type" : "Feature",
        "id" : 344,
            "geometry" : {
                "type" : "Point",
                "coordinates" : [103.7496921,1.360329059]},
        "properties" : { "name" : "367 Bukit Batok Street 31","price" : 330000,"sqft" : 731}
        },
         { "type" : "Feature",
        "id" : 345,
            "geometry" : {
                "type" : "Point",
                "coordinates" : [103.8548595,1.335337885]},
        "properties" : { "name" : "38 Lorong 5 Toa Payoh","price" : 330000,"sqft" : 710}
        },
         { "type" : "Feature",
        "id" : 346,
            "geometry" : {
                "type" : "Point",
                "coordinates" : [103.9467199,1.357832255]},
        "properties" : { "name" : "419 Tampines Street 41","price" : 330000,"sqft" : 645}
        },
         { "type" : "Feature",
        "id" : 347,
            "geometry" : {
                "type" : "Point",
                "coordinates" : [103.8658304,1.321105978]},
        "properties" : { "name" : "43 Bendemeer Road","price" : 330000,"sqft" : 678}
        },
         { "type" : "Feature",
        "id" : 348,
            "geometry" : {
                "type" : "Point",
                "coordinates" : [103.8232354,1.270378058]},
        "properties" : { "name" : "43 Telok Blangah Rise","price" : 330000,"sqft" : 635}
        },
         { "type" : "Feature",
        "id" : 349,
            "geometry" : {
                "type" : "Point",
                "coordinates" : [103.7184438,1.352346932]},
        "properties" : { "name" : "449 Jurong West Street 42","price" : 330000,"sqft" : 721}
        },
         { "type" : "Feature",
        "id" : 350,
            "geometry" : {
                "type" : "Point",
                "coordinates" : [103.7223501,1.350656268]},
        "properties" : { "name" : "462 Jurong West Street 41","price" : 330000,"sqft" : 786}
        },
         { "type" : "Feature",
        "id" : 351,
            "geometry" : {
                "type" : "Point",
                "coordinates" : [103.7753787,1.439727845]},
        "properties" : { "name" : "5 Marsiling Drive","price" : 330000,"sqft" : 969}
        },
         { "type" : "Feature",
        "id" : 352,
            "geometry" : {
                "type" : "Point",
                "coordinates" : [103.7597865,1.308388018]},
        "properties" : { "name" : "515 West Coast Road","price" : 330000,"sqft" : 731}
        },
         { "type" : "Feature",
        "id" : 353,
            "geometry" : {
                "type" : "Point",
                "coordinates" : [103.7597865,1.308388018]},
        "properties" : { "name" : "515 West Coast Road","price" : 330000,"sqft" : 721}
        },
         { "type" : "Feature",
        "id" : 354,
            "geometry" : {
                "type" : "Point",
                "coordinates" : [103.7589343,1.308250932]},
        "properties" : { "name" : "518 West Coast Road","price" : 330000,"sqft" : 731}
        },
         { "type" : "Feature",
        "id" : 355,
            "geometry" : {
                "type" : "Point",
                "coordinates" : [103.752498,1.35670693]},
        "properties" : { "name" : "523 Bukit Batok Street 52","price" : 330000,"sqft" : 742}
        },
         { "type" : "Feature",
        "id" : 356,
            "geometry" : {
                "type" : "Point",
                "coordinates" : [103.752498,1.35670693]},
        "properties" : { "name" : "523 Bukit Batok Street 52","price" : 330000,"sqft" : 645}
        },
         { "type" : "Feature",
        "id" : 357,
            "geometry" : {
                "type" : "Point",
                "coordinates" : [103.7153459,1.349088245]},
        "properties" : { "name" : "531 Jurong West Street 52","price" : 330000,"sqft" : 721}
        },
         { "type" : "Feature",
        "id" : 358,
            "geometry" : {
                "type" : "Point",
                "coordinates" : [103.9229782,1.333206625]},
        "properties" : { "name" : "536 Bedok North Street 3","price" : 330000,"sqft" : 731}
        },
         { "type" : "Feature",
        "id" : 359,
            "geometry" : {
                "type" : "Point",
                "coordinates" : [103.7665182,1.304350718]},
        "properties" : { "name" : "608 Clementi West Street 1","price" : 330000,"sqft" : 721}
        },
         { "type" : "Feature",
        "id" : 360,
            "geometry" : {
                "type" : "Point",
                "coordinates" : [103.8815147,1.370687549]},
        "properties" : { "name" : "631 Hougang Avenue 8","price" : 330000,"sqft" : 645}
        },
         { "type" : "Feature",
        "id" : 361,
            "geometry" : {
                "type" : "Point",
                "coordinates" : [103.8841508,1.371213298]},
        "properties" : { "name" : "677 Hougang Avenue 8","price" : 330000,"sqft" : 688}
        },
         { "type" : "Feature",
        "id" : 362,
            "geometry" : {
                "type" : "Point",
                "coordinates" : [103.7613704,1.307606055]},
        "properties" : { "name" : "701 West Coast Road","price" : 330000,"sqft" : 721}
        },
         { "type" : "Feature",
        "id" : 363,
            "geometry" : {
                "type" : "Point",
                "coordinates" : [103.761109,1.307266768]},
        "properties" : { "name" : "702 West Coast Road","price" : 330000,"sqft" : 721}
        },
         { "type" : "Feature",
        "id" : 364,
            "geometry" : {
                "type" : "Point",
                "coordinates" : [103.8288815,1.429230825]},
        "properties" : { "name" : "704 Yishun Avenue 5","price" : 330000,"sqft" : 721}
        },
         { "type" : "Feature",
        "id" : 365,
            "geometry" : {
                "type" : "Point",
                "coordinates" : [103.8288815,1.429230825]},
        "properties" : { "name" : "704 Yishun Avenue 5","price" : 330000,"sqft" : 732}
        },
         { "type" : "Feature",
        "id" : 366,
            "geometry" : {
                "type" : "Point",
                "coordinates" : [103.8277835,1.427856637]},
        "properties" : { "name" : "712 Yishun Avenue 5","price" : 330000,"sqft" : 732}
        },
         { "type" : "Feature",
        "id" : 367,
            "geometry" : {
                "type" : "Point",
                "coordinates" : [103.8321406,1.429749967]},
        "properties" : { "name" : "739 Yishun Avenue 5","price" : 330000,"sqft" : 721}
        },
         { "type" : "Feature",
        "id" : 368,
            "geometry" : {
                "type" : "Point",
                "coordinates" : [103.8558793,1.323145316]},
        "properties" : { "name" : "86 Whampoa Drive","price" : 330000,"sqft" : 710}
        },